Timestamp,accelX(g),accelY(g),accelZ(g),accelUserX(g),accelUserY(g),accelUserZ(g),gyroX(rad/s),gyroY(rad/s),gyroZ(rad/s),Roll(rads),Pitch(rads),Yaw(rads),Lat,Long,Speed(m/s),TrueHeading,Alt(m), HorizontalAccuracy(m), VerticalAccuracy(m),ActivityType,ActivityConfidence,Pressure(kilopascals),RelativeAltitude(meters),magX(µT),magY(µT),magZ(µT),calMagX,calMagY,calMagZ
21-May-2019 14:59:18.593, 0.0023, 0.0774,-1.0253, 0.0110,-0.0076,-0.0028,-0.0171, 0.0350,-0.0118, 0.0050,-0.0916,-1.7106,41.740584,-91.592872,-1.0000, 270.6002, 242.369781, 2863.8, 29.1,Automotive,Low, 98.0131, 0.0000, 64.0955, 24.6794,-275.2480, 0.0000, 0.0000, 0.0000
21-May-2019 14:59:18.634,-0.0076, 0.0869,-1.0051, 0.0076,-0.0077,-0.0175,-0.0160, 0.0191,-0.0097, 0.0049,-0.0906,-1.7107,41.740584,-91.592872,-1.0000, 271.6488, 242.369781, 2863.8, 29.1,Automotive,Low, 98.0131, 0.0000, 65.1608, 23.6141,-275.5856, 0.0000, 0.0000, 0.0000
21-May-2019 14:59:18.682,-0.0072, 0.0859,-1.0094, 0.0047,-0.0045,-0.0150,-0.0096, 0.0286,-0.0107, 0.0043,-0.0899,-1.7109,41.740584,-91.592872,-1.0000, 271.6488, 242.369781, 2863.8, 29.1,Automotive,Low, 98.0131, 0.0000, 63.5629, 23.7917,-273.0541, 0.0000, 0.0000, 0.0000
21-May-2019 14:59:18.711,-0.0013, 0.0855,-1.0085, 0.0038,-0.0048,-0.0216,-0.0182, 0.0255,-0.0118, 0.0044,-0.0897,-1.7109,41.740584,-91.592872,-1.0000, 271.6488, 242.369781, 2863.8, 29.1,Automotive,Low, 98.0131, 0.0000, 63.3853, 23.2590,-276.5981, 0.0000, 0.0000, 0.0000
21-May-2019 14:59:18.751,-0.0008, 0.0788,-1.0118, 0.0056,-0.0044,-0.0174,-0.0150, 0.0286,-0.0128, 0.0046,-0.0893,-1.7110,41.740584,-91.592872,-1.0000, 271.6488, 242.369781, 2863.8, 29.1,Automotive,Low, 98.0131, 0.0000, 63.3853, 23.2590,-274.9105, 0.0000, 0.0000, 0.0000
21-May-2019 14:59:18.790, 0.0031, 0.0826,-1.0129, 0.0056,-0.0067,-0.0187,-0.0150, 0.0286,-0.0107, 0.0047,-0.0885,-1.7111,41.740584,-91.592872,-1.0000, 271.6488, 242.369781, 2863.8, 29.1,Automotive,Low, 98.0131, 0.0000, 63.0302, 23.6141,-276.2606, 0.0000, 0.0000, 0.0000
21-May-2019 14:59:18.831, 0.0014, 0.0841,-1.0081, 0.0066,-0.0106,-0.0222,-0.0150, 0.0265,-0.0118, 0.0050,-0.0878,-1.7111,41.740584,-91.592872,-1.0000, 271.6488, 242.369781, 2863.8, 29.1,Automotive,Low, 98.0131, 0.0000, 62.8527, 24.5019,-275.4168, 0.0000, 0.0000, 0.0000
21-May-2019 14:59:18.873, 0.0015, 0.0833,-1.0141, 0.0026,-0.0094,-0.0155,-0.0128, 0.0286,-0.0118, 0.0051,-0.0869,-1.7112,41.740584,-91.592872,-1.0000, 271.6488, 242.369781, 2863.8, 29.1,Automotive,Low, 98.0131, 0.0000, 63.9180, 22.0162,-276.7669, 0.0000, 0.0000, 0.0000
21-May-2019 14:59:18.906, 0.0022, 0.0844,-1.0154, 0.0037,-0.0065,-0.0155,-0.0171, 0.0265,-0.0096, 0.0051,-0.0867,-1.7113,41.740584,-91.592872,-1.0000, 271.6488, 242.369781, 2863.8, 29.1,Automotive,Low, 98.0131, 0.0000, 62.4976, 24.5019,-276.7669, 0.0000, 0.0000, 0.0000
21-May-2019 14:59:18.950, 0.0029, 0.0810,-1.0119,-0.0021,-0.0049,-0.0156,-0.0139, 0.0276,-0.0118, 0.0050,-0.0860,-1.7114,41.740584,-91.592872,-1.0000, 271.6488, 242.369781, 2863.8, 29.1,Automotive,Low, 98.0131, 0.0000, 62.8527, 23.7917,-274.0667, 0.0000, 0.0000, 0.0000
21-May-2019 14:59:18.984,-0.0019, 0.0805,-1.0180,-0.0029,-0.0001,-0.0184,-0.0128, 0.0318,-0.0107, 0.0049,-0.0858,-1.7115,41.740584,-91.592872,-1.0000, 271.6488, 242.369781, 2863.8, 29.1,Automotive,Low, 98.0131, 0.0000, 62.4976, 24.8570,-274.7418, 0.0000, 0.0000, 0.0000
21-May-2019 14:59:19.020, 0.0050, 0.0835,-1.0148, 0.0003,-0.0043,-0.0245,-0.0128, 0.0318,-0.0107, 0.0050,-0.0857,-1.7115,41.740584,-91.592872,-1.0000, 271.6488, 242.369781, 2863.8, 29.1,Automotive,Low, 98.0131, 0.0000, 63.5629, 25.2121,-275.0793, 0.0000, 0.0000, 0.0000
21-May-2019 14:59:19.060, 0.0023, 0.0842,-1.0129,-0.0017,-0.0031,-0.0196,-0.0171, 0.0339,-0.0107, 0.0049,-0.0854,-1.7117,41.740584,-91.592872,-1.0000, 271.6488, 242.369781, 2863.8, 29.1,Automotive,Low, 98.0131, 0.0000, 64.4506, 24.6794,-273.8979, 0.0000, 0.0000, 0.0000
21-May-2019 14:59:19.100, 0.0029, 0.0826,-1.0096, 0.0013, 0.0003,-0.0199,-0.0150, 0.0339,-0.0118, 0.0049,-0.0852,-1.7117,41.740584,-91.592872,-1.0000, 271.6488, 242.369781, 2863.8, 29.1,Automotive,Low, 98.0131, 0.0000, 64.6282, 24.1468,-274.7418, 0.0000, 0.0000, 0.0000
21-May-2019 14:59:19.135, 0.0021, 0.0826,-1.0141,-0.0009,-0.0010,-0.0142,-0.0150, 0.0339,-0.0118, 0.0049,-0.0849,-1.7118,41.740584,-91.592872,-1.0000, 271.6488, 242.369781, 2863.8, 29.1,Automotive,Low, 98.0131, 0.0000, 63.7404, 23.6141,-275.5856, 0.0000, 0.0000, 0.0000
21-May-2019 14:59:19.174, 0.0042, 0.0849,-1.0119,-0.0015,-0.0019,-0.0166,-0.0171, 0.0318,-0.0118, 0.0050,-0.0846,-1.7119,41.740584,-91.592872,-1.0000, 271.6488, 242.369781, 2863.8, 29.1,Automotive,Low, 98.0131, 0.0000, 64.4506, 24.3243,-274.5730, 0.0000, 0.0000, 0.0000
21-May-2019 14:59:19.214, 0.0052, 0.0805,-1.0121,-0.0001, 0.0003,-0.0167,-0.0150, 0.0329,-0.0118, 0.0050,-0.0843,-1.7120,41.740584,-91.592872,-1.0000, 271.6488, 242.369781, 2863.8, 29.1,Automotive,Low, 98.0131, 0.0000, 64.4506, 24.3243,-274.5730, 0.0000, 0.0000, 0.0000
21-May-2019 14:59:19.252, 0.0025, 0.0820,-1.0119, 0.0006,-0.0009,-0.0195,-0.0171, 0.0308,-0.0107, 0.0050,-0.0840,-1.7121,41.740584,-91.592872,-1.0000, 271.6488, 242.369781, 2863.8, 29.1,Automotive,Low, 98.0131, 0.0000, 64.8057, 25.0345,-275.5856, 0.0000, 0.0000, 0.0000
21-May-2019 14:59:19.291, 0.0037, 0.0822,-1.0120, 0.0009, 0.0003,-0.0171,-0.0139, 0.0297,-0.0107, 0.0049,-0.0838,-1.7121,41.740584,-91.592872,-1.0000, 271.6488, 242.369781, 2863.8, 29.1,Automotive,Low, 98.0131, 0.0000, 62.6751, 23.2590,-274.5730, 0.0000, 0.0000, 0.0000
21-May-2019 14:59:19.334, 0.0043, 0.0832,-1.0122, 0.0019,-0.0004,-0.0184,-0.0171, 0.0286,-0.0107, 0.0050,-0.0836,-1.7122,41.740584,-91.592872,-1.0000, 271.6488, 242.369781, 2863.8, 29.1,Automotive,Low, 98.0131, 0.0000, 64.6282, 23.7917,-274.0667, 0.0000, 0.0000, 0.0000
21-May-2019 14:59:19.370, 0.0054, 0.0844,-1.0131,-0.0008,-0.0002,-0.0160,-0.0150, 0.0276,-0.0107, 0.0050,-0.0834,-1.7123,41.740584,-91.592872,-1.0000, 271.6488, 242.369781, 2863.8, 29.1,Automotive,Low, 98.0131, 0.0000, 62.8527, 23.4366,-274.4042, 0.0000, 0.0000, 0.0000
21-May-2019 14:59:19.407, 0.0045, 0.0817,-1.0129,-0.0033, 0.0004,-0.0143,-0.0171, 0.0297,-0.0107, 0.0049,-0.0833,-1.7123,41.740584,-91.592872,-1.0000, 271.6488, 242.369781, 2863.8, 29.1,Automotive,Low, 98.0131, 0.0000, 64.0955, 24.6794,-274.5730, 0.0000, 0.0000, 0.0000
21-May-2019 14:59:19.446, 0.0035, 0.0840,-1.0122,-0.0044, 0.0014,-0.0169,-0.0160, 0.0297,-0.0118, 0.0048,-0.0831,-1.7124,41.740584,-91.592872,-1.0000, 271.6488, 242.369781, 2863.8, 29.1,Automotive,Low, 98.0131, 0.0000, 64.8057, 22.9039,-274.2355, 0.0000, 0.0000, 0.0000
21-May-2019 14:59:19.492, 0.0049, 0.0817,-1.0144, 0.0002,-0.0011,-0.0179,-0.0171, 0.0318,-0.0107, 0.0047,-0.0829,-1.7126,41.740584,-91.592872,-1.0000, 271.6488, 242.369781, 2863.8, 29.1,Automotive,Low, 98.0131, 0.0000, 63.7404, 23.2590,-275.2480, 0.0000, 0.0000, 0.0000
21-May-2019 14:59:19.532, 0.0034, 0.0798,-1.0148,-0.0005,-0.0003,-0.0175,-0.0160, 0.0318,-0.0128, 0.0047,-0.0828,-1.7126,41.740584,-91.592872,-1.0000, 271.6488, 242.369781, 2863.8, 29.1,Automotive,Low, 98.0131, 0.0000, 63.3853, 23.2590,-273.5604, 0.0000, 0.0000, 0.0000
21-May-2019 14:59:19.563, 0.0064, 0.0831,-1.0130,-0.0002,-0.0014,-0.0177,-0.0160, 0.0308,-0.0096, 0.0047,-0.0827,-1.7127,41.740584,-91.592872,-1.0000, 271.6488, 242.369781, 2863.8, 29.1,Automotive,Low, 98.0135,-0.0370, 63.3853, 24.6794,-275.9231, 0.0000, 0.0000, 0.0000
21-May-2019 14:59:19.600, 0.0043, 0.0824,-1.0126,-0.0002,-0.0028,-0.0180,-0.0160, 0.0329,-0.0118, 0.0047,-0.0826,-1.7128,41.740584,-91.592872,-1.0000, 271.6488, 242.369781, 2863.8, 29.1,Automotive,Low, 98.0135,-0.0370, 62.6751, 25.0345,-275.5856, 0.0000, 0.0000, 0.0000
21-May-2019 14:59:19.640, 0.0070, 0.0811,-1.0160,-0.0006, 0.0006,-0.0151,-0.0150, 0.0318,-0.0107, 0.0048,-0.0824,-1.7128,41.740584,-91.592872,-1.0000, 271.6488, 242.369781, 2863.8, 29.1,Automotive,Low, 98.0135,-0.0370, 64.0955, 23.9692,-274.5730, 0.0000, 0.0000, 0.0000
21-May-2019 14:59:19.679, 0.0054, 0.0813,-1.0135, 0.0015, 0.0017,-0.0166,-0.0160, 0.0318,-0.0118, 0.0048,-0.0823,-1.7129,41.740584,-91.592872,-1.0000, 271.6488, 242.369781, 2863.8, 29.1,Automotive,Low, 98.0135,-0.0370, 62.4976, 24.8570,-274.4042, 0.0000, 0.0000, 0.0000
21-May-2019 14:59:19.717, 0.0063, 0.0852,-1.0135, 0.0002, 0.0006,-0.0164,-0.0160, 0.0297,-0.0118, 0.0048,-0.0822,-1.7130,41.740584,-91.592872,-1.0000, 271.6488, 242.369781, 2863.8, 29.1,Automotive,Low, 98.0135,-0.0370, 63.0302, 23.9692,-275.9231, 0.0000, 0.0000, 0.0000
21-May-2019 14:59:19.756, 0.0063, 0.0837,-1.0117, 0.0005, 0.0003,-0.0146,-0.0160, 0.0297,-0.0107, 0.0048,-0.0822,-1.7131,41.740584,-91.592872,-1.0000, 271.6488, 242.369781, 2863.8, 29.1,Automotive,Low, 98.0135,-0.0370, 64.4506, 25.7447,-273.8979, 0.0000, 0.0000, 0.0000
21-May-2019 14:59:19.794, 0.0032, 0.0824,-1.0139, 0.0014, 0.0022,-0.0158,-0.0150, 0.0286,-0.0107, 0.0048,-0.0821,-1.7131,41.740584,-91.592872,-1.0000, 271.6488, 242.369781, 2863.8, 29.1,Automotive,Low, 98.0135,-0.0370, 63.3853, 23.9692,-275.2480, 0.0000, 0.0000, 0.0000
21-May-2019 14:59:19.836, 0.0043, 0.0820,-1.0136,-0.0016, 0.0001,-0.0162,-0.0160, 0.0297,-0.0118, 0.0049,-0.0820,-1.7132,41.740584,-91.592872,-1.0000, 271.6488, 242.369781, 2863.8, 29.1,Automotive,Low, 98.0135,-0.0370, 63.3853, 25.0345,-275.9231, 0.0000, 0.0000, 0.0000
21-May-2019 14:59:19.872, 0.0040, 0.0823,-1.0143, 0.0004, 0.0018,-0.0186,-0.0150, 0.0286,-0.0107, 0.0049,-0.0819,-1.7133,41.740584,-91.592872,-1.0000, 271.6488, 242.369781, 2863.8, 29.1,Automotive,Low, 98.0135,-0.0370, 64.4506, 24.3243,-276.9356, 0.0000, 0.0000, 0.0000
21-May-2019 14:59:19.920, 0.0043, 0.0806,-1.0142,-0.0000, 0.0002,-0.0180,-0.0182, 0.0297,-0.0096, 0.0048,-0.0819,-1.7134,41.740584,-91.592872,-1.0000, 271.6488, 242.369781, 2863.8, 29.1,Automotive,Low, 98.0135,-0.0370, 63.0302, 23.2590,-274.9105, 0.0000, 0.0000, 0.0000
21-May-2019 14:59:19.948, 0.0053, 0.0823,-1.0116, 0.0003, 0.0028,-0.0184,-0.0150, 0.0297,-0.0118, 0.0047,-0.0818,-1.7135,41.740584,-91.592872,-1.0000, 271.6488, 242.369781, 2863.8, 29.1,Automotive,Low, 98.0135,-0.0370, 64.4506, 23.6141,-275.2480, 0.0000, 0.0000, 0.0000
21-May-2019 14:59:19.987, 0.0075, 0.0813,-1.0138,-0.0004, 0.0008,-0.0175,-0.0150, 0.0318,-0.0107, 0.0048,-0.0818,-1.7136,41.751930,-91.580979, 0.0000, 271.6488, 246.051666, 5.0, 12.0,Automotive,Low, 98.0135,-0.0370, 65.1608, 23.6141,-275.9231, 0.0000, 0.0000, 0.0000
21-May-2019 14:59:20.029, 0.0041, 0.0840,-1.0143,-0.0015, 0.0012,-0.0145,-0.0160, 0.0308,-0.0086, 0.0049,-0.0817,-1.7136,41.751930,-91.580979, 0.0000, 271.6488, 246.051666, 5.0, 12.0,Automotive,Low, 98.0135,-0.0370, 65.5159, 24.6794,-274.9105, 0.0000, 0.0000, 0.0000
21-May-2019 14:59:20.065, 0.0043, 0.0840,-1.0149,-0.0004, 0.0026,-0.0147,-0.0150, 0.0297,-0.0118, 0.0048,-0.0817,-1.7137,41.751930,-91.580979, 0.0000, 271.6488, 246.051666, 5.0, 12.0,Automotive,Low, 98.0135,-0.0370, 63.9180, 22.7264,-274.7418, 0.0000, 0.0000, 0.0000
21-May-2019 14:59:20.105, 0.0053, 0.0840,-1.0143,-0.0011, 0.0022,-0.0170,-0.0160, 0.0318,-0.0107, 0.0048,-0.0817,-1.7138,41.751930,-91.580979, 0.0000, 271.6488, 246.051666, 5.0, 12.0,Automotive,Low, 98.0135,-0.0370, 63.0302, 23.9692,-275.2480, 0.0000, 0.0000, 0.0000
21-May-2019 14:59:20.142, 0.0049, 0.0800,-1.0125, 0.0020, 0.0009,-0.0188,-0.0160, 0.0308,-0.0118, 0.0048,-0.0816,-1.7139,41.751930,-91.580979, 0.0000, 271.6488, 246.051666, 5.0, 12.0,Automotive,Low, 98.0135,-0.0370, 64.6282, 22.7264,-275.0793, 0.0000, 0.0000, 0.0000
21-May-2019 14:59:20.181, 0.0033, 0.0808,-1.0129,-0.0013,-0.0007,-0.0187,-0.0150, 0.0329,-0.0107, 0.0048,-0.0814,-1.7140,41.751930,-91.580979, 0.0000, 271.6488, 246.051666, 5.0, 12.0,Automotive,Low, 98.0135,-0.0370, 61.4323, 23.7917,-274.0667, 0.0000, 0.0000, 0.0000
21-May-2019 14:59:20.219, 0.0038, 0.0833,-1.0096, 0.0012, 0.0004,-0.0180,-0.0150, 0.0329,-0.0107, 0.0048,-0.0814,-1.7140,41.751930,-91.580979, 0.0000, 271.6488, 246.051666, 5.0, 12.0,Automotive,Low, 98.0135,-0.0370, 61.4323, 23.7917,-274.0667, 0.0000, 0.0000, 0.0000
21-May-2019 14:59:20.258, 0.0018, 0.0842,-1.0122,-0.0021, 0.0014,-0.0132,-0.0160, 0.0297,-0.0107, 0.0047,-0.0814,-1.7141,41.751930,-91.580979, 0.0000, 271.6488, 246.051666, 5.0, 12.0,Automotive,Low, 98.0135,-0.0370, 64.4506, 24.3243,-276.5981, 0.0000, 0.0000, 0.0000
21-May-2019 14:59:20.299, 0.0038, 0.0830,-1.0143,-0.0010, 0.0014,-0.0154,-0.0160, 0.0297,-0.0107, 0.0047,-0.0814,-1.7142,41.751930,-91.580979, 0.0000, 271.6488, 246.051666, 5.0, 12.0,Automotive,Low, 98.0135,-0.0370, 64.8057, 22.9039,-274.5730, 0.0000, 0.0000, 0.0000
21-May-2019 14:59:20.336, 0.0053, 0.0830,-1.0135, 0.0012, 0.0021,-0.0160,-0.0160, 0.0308,-0.0118, 0.0048,-0.0813,-1.7143,41.751930,-91.580979, 0.0000, 271.6488, 246.051666, 5.0, 12.0,Automotive,Low, 98.0135,-0.0370, 62.6751, 23.6141,-276.9356, 0.0000, 0.0000, 0.0000
21-May-2019 14:59:20.374, 0.0050, 0.0816,-1.0112,-0.0006, 0.0010,-0.0197,-0.0139, 0.0297,-0.0118, 0.0048,-0.0813,-1.7144,41.751930,-91.580979, 0.0000, 271.6488, 246.051666, 5.0, 12.0,Automotive,Low, 98.0135,-0.0370, 62.4976, 24.5019,-274.7418, 0.0000, 0.0000, 0.0000
21-May-2019 14:59:20.413, 0.0049, 0.0820,-1.0111, 0.0023, 0.0028,-0.0152,-0.0160, 0.0308,-0.0086, 0.0048,-0.0813,-1.7144,41.751930,-91.580979, 0.0000, 271.6488, 246.051666, 5.0, 12.0,Automotive,Low, 98.0135,-0.0370, 64.8057, 23.9692,-274.9105, 0.0000, 0.0000, 0.0000
21-May-2019 14:59:20.452, 0.0030, 0.0837,-1.0105, 0.0018, 0.0000,-0.0171,-0.0160, 0.0297,-0.0107, 0.0049,-0.0812,-1.7145,41.751930,-91.580979, 0.0000, 271.6488, 246.051666, 5.0, 12.0,Automotive,Low, 98.0135,-0.0370, 63.2078, 23.0815,-275.7543, 0.0000, 0.0000, 0.0000
21-May-2019 14:59:20.498, 0.0019, 0.0838,-1.0165,-0.0005,-0.0002,-0.0166,-0.0150, 0.0297,-0.0107, 0.0048,-0.0812,-1.7146,41.751930,-91.580979, 0.0000, 272.6561, 246.051666, 5.0, 12.0,Automotive,Low, 98.0135,-0.0370, 63.9180, 24.8570,-274.7418, 0.0000, 0.0000, 0.0000
21-May-2019 14:59:20.529, 0.0053, 0.0826,-1.0138,-0.0005, 0.0014,-0.0127,-0.0150, 0.0297,-0.0107, 0.0048,-0.0812,-1.7146,41.751930,-91.580979, 0.0000, 272.6561, 246.051666, 5.0, 12.0,Automotive,Low, 98.0135,-0.0370, 62.3200, 24.3243,-274.5730, 0.0000, 0.0000, 0.0000
21-May-2019 14:59:20.568, 0.0022, 0.0834,-1.0137,-0.0016, 0.0016,-0.0165,-0.0150, 0.0308,-0.0096, 0.0048,-0.0812,-1.7147,41.751930,-91.580979, 0.0000, 272.6561, 246.051666, 5.0, 12.0,Automotive,Low, 98.0139,-0.0740, 63.7404, 25.0345,-276.5981, 0.0000, 0.0000, 0.0000
21-May-2019 14:59:20.608, 0.0062, 0.0825,-1.0137,-0.0015, 0.0024,-0.0172,-0.0160, 0.0318,-0.0107, 0.0047,-0.0812,-1.7147,41.751930,-91.580979, 0.0000, 272.6561, 246.051666, 5.0, 12.0,Automotive,Low, 98.0139,-0.0740, 64.6282, 24.1468,-275.4168, 0.0000, 0.0000, 0.0000
21-May-2019 14:59:20.646, 0.0052, 0.0817,-1.0133, 0.0005,-0.0000,-0.0192,-0.0150, 0.0318,-0.0107, 0.0048,-0.0813,-1.7148,41.751930,-91.580979, 0.0000, 272.6561, 246.051666, 5.0, 12.0,Automotive,Low, 98.0139,-0.0740, 64.6282, 23.4366,-274.7418, 0.0000, 0.0000, 0.0000
21-May-2019 14:59:20.691, 0.0043, 0.0809,-1.0108,-0.0002,-0.0004,-0.0155,-0.0150, 0.0308,-0.0107, 0.0047,-0.0811,-1.7149,41.751930,-91.580979, 0.0000, 272.6561, 246.051666, 5.0, 12.0,Automotive,Low, 98.0139,-0.0740, 63.0302, 24.3243,-273.8979, 0.0000, 0.0000, 0.0000
21-May-2019 14:59:20.731, 0.0040, 0.0823,-1.0121, 0.0019, 0.0036,-0.0138,-0.0139, 0.0308,-0.0107, 0.0047,-0.0811,-1.7149,41.751930,-91.580979, 0.0000, 272.6561, 246.051666, 5.0, 12.0,Automotive,Low, 98.0139,-0.0740, 62.6751, 25.0345,-275.5856, 0.0000, 0.0000, 0.0000
21-May-2019 14:59:20.764, 0.0037, 0.0828,-1.0173, 0.0015, 0.0013,-0.0154,-0.0160, 0.0308,-0.0107, 0.0048,-0.0811,-1.7150,41.751930,-91.580979, 0.0000, 272.6561, 246.051666, 5.0, 12.0,Automotive,Low, 98.0139,-0.0740, 63.7404, 22.9039,-275.9231, 0.0000, 0.0000, 0.0000
21-May-2019 14:59:20.800, 0.0049, 0.0813,-1.0163,-0.0020, 0.0005,-0.0173,-0.0150, 0.0297,-0.0107, 0.0048,-0.0811,-1.7151,41.751930,-91.580979, 0.0000, 272.6561, 246.051666, 5.0, 12.0,Automotive,Low, 98.0139,-0.0740, 64.2731, 24.5019,-273.3917, 0.0000, 0.0000, 0.0000
21-May-2019 14:59:20.849, 0.0051, 0.0799,-1.0129, 0.0026, 0.0016,-0.0180,-0.0171, 0.0297,-0.0096, 0.0048,-0.0811,-1.7151,41.751930,-91.580979, 0.0000, 272.6561, 246.051666, 5.0, 12.0,Automotive,Low, 98.0139,-0.0740, 64.2731, 25.9223,-273.7292, 0.0000, 0.0000, 0.0000
21-May-2019 14:59:20.877, 0.0055, 0.0817,-1.0120, 0.0014, 0.0005,-0.0197,-0.0150, 0.0308,-0.0118, 0.0048,-0.0811,-1.7152,41.751930,-91.580979, 0.0000, 272.6561, 246.051666, 5.0, 12.0,Automotive,Low, 98.0139,-0.0740, 64.0955, 23.6141,-275.5856, 0.0000, 0.0000, 0.0000
21-May-2019 14:59:20.916, 0.0047, 0.0844,-1.0107,-0.0007, 0.0011,-0.0200,-0.0160, 0.0286,-0.0118, 0.0048,-0.0810,-1.7153,41.751930,-91.580979, 0.0000, 272.6561, 246.051666, 5.0, 12.0,Automotive,Low, 98.0139,-0.0740, 62.6751, 24.3243,-274.5730, 0.0000, 0.0000, 0.0000
21-May-2019 14:59:20.960, 0.0058, 0.0777,-1.0151, 0.0000, 0.0027,-0.0124,-0.0160, 0.0297,-0.0107, 0.0048,-0.0810,-1.7154,41.751930,-91.580979, 0.0000, 272.6561, 246.051666, 5.0, 12.0,Automotive,Low, 98.0139,-0.0740, 64.4506, 22.9039,-275.5856, 0.0000, 0.0000, 0.0000
21-May-2019 14:59:20.988, 0.0052, 0.0811,-0.9957, 0.0012, 0.0035,-0.0308,-0.0160, 0.0339,-0.0107, 0.0048,-0.0810,-1.7154,41.751930,-91.580979, 0.0000, 272.6561, 246.051666, 5.0, 12.0,Automotive,Low, 98.0139,-0.0740, 64.4506, 22.9039,-275.5856, 0.0000, 0.0000, 0.0000
21-May-2019 14:59:21.025, 0.0020, 0.0751,-1.0128,-0.0017, 0.0075,-0.0296,-0.0182, 0.0350,-0.0118, 0.0048,-0.0811,-1.7155,41.751930,-91.580979, 0.0000, 272.6561, 246.051666, 5.0, 12.0,Automotive,Low, 98.0139,-0.0740, 63.2078, 23.4366,-276.4294, 0.0000, 0.0000, 0.0000
21-May-2019 14:59:21.064,-0.0005, 0.0818,-1.0093,-0.0006, 0.0035,-0.0261,-0.0139, 0.0339,-0.0096, 0.0048,-0.0811,-1.7156,41.751930,-91.580979, 0.0000, 272.6561, 246.248627, 5.0, 4.0,Automotive,Low, 98.0139,-0.0740, 64.0955, 25.0345,-274.9105, 0.0000, 0.0000, 0.0000
21-May-2019 14:59:21.103, 0.0067, 0.0905,-1.0087, 0.0044, 0.0102,-0.0116,-0.0139, 0.0276,-0.0086, 0.0048,-0.0813,-1.7157,41.751930,-91.580979, 0.0000, 272.6561, 246.248627, 5.0, 4.0,Automotive,Low, 98.0139,-0.0740, 64.0955, 24.6794,-274.9105, 0.0000, 0.0000, 0.0000
21-May-2019 14:59:21.141,-0.0043, 0.0764,-1.0189, 0.0020,-0.0022,-0.0152,-0.0139, 0.0297,-0.0128, 0.0048,-0.0809,-1.7157,41.751930,-91.580979, 0.0000, 272.6561, 246.248627, 5.0, 4.0,Automotive,Low, 98.0139,-0.0740, 61.9649, 23.6141,-275.9231, 0.0000, 0.0000, 0.0000
21-May-2019 14:59:21.181, 0.0015, 0.0806,-1.0081, 0.0074,-0.0008,-0.0225,-0.0139, 0.0297,-0.0128, 0.0047,-0.0809,-1.7158,41.751930,-91.580979, 0.0000, 272.6561, 246.248627, 5.0, 4.0,Automotive,Low, 98.0139,-0.0740, 64.4506, 23.6141,-274.5730, 0.0000, 0.0000, 0.0000
21-May-2019 14:59:21.219,-0.0028, 0.0882,-1.0159, 0.0059,-0.0023,-0.0176,-0.0171, 0.0265,-0.0107, 0.0046,-0.0810,-1.7159,41.751930,-91.580979, 0.0000, 272.6561, 246.248627, 5.0, 4.0,Automotive,Low, 98.0139,-0.0740, 63.0302, 23.9692,-273.2229, 0.0000, 0.0000, 0.0000
21-May-2019 14:59:21.261,-0.0051, 0.0825,-1.0160, 0.0072, 0.0051,-0.0194,-0.0192, 0.0297,-0.0086, 0.0045,-0.0809,-1.7159,41.751930,-91.580979, 0.0000, 272.6561, 246.248627, 5.0, 4.0,Automotive,Low, 98.0139,-0.0740, 65.1608, 23.2590,-274.2355, 0.0000, 0.0000, 0.0000
21-May-2019 14:59:21.298,-0.0016, 0.1035,-1.0049, 0.0095,-0.0125,-0.0182,-0.0192, 0.0297,-0.0086, 0.0046,-0.0804,-1.7160,41.751930,-91.580979, 0.0000, 272.6561, 246.248627, 5.0, 4.0,Automotive,Low, 98.0139,-0.0740, 64.0955, 24.6794,-274.5730, 0.0000, 0.0000, 0.0000
21-May-2019 14:59:21.337,-0.0137, 0.0825,-1.0158, 0.0079,-0.0024,-0.0174,-0.0107, 0.0244,-0.0107, 0.0048,-0.0806,-1.7161,41.751930,-91.580979, 0.0000, 272.6561, 246.248627, 5.0, 4.0,Automotive,Low, 98.0139,-0.0740, 63.5629, 23.7917,-275.0793, 0.0000, 0.0000, 0.0000
21-May-2019 14:59:21.377, 0.0003, 0.0706,-1.0020,-0.0088,-0.0030,-0.0266,-0.0192, 0.0276,-0.0086, 0.0047,-0.0803,-1.7162,41.751930,-91.580979, 0.0000, 272.6561, 246.248627, 5.0, 4.0,Automotive,Low, 98.0139,-0.0740, 64.2731, 24.5019,-275.4168, 0.0000, 0.0000, 0.0000
21-May-2019 14:59:21.421,-0.0016, 0.0636,-1.0112, 0.0188, 0.0055,-0.0102,-0.0192, 0.0308,-0.0118, 0.0049,-0.0802,-1.7162,41.751930,-91.580979, 0.0000, 272.6561, 246.248627, 5.0, 4.0,Automotive,Low, 98.0139,-0.0740, 63.7404, 24.3243,-274.9105, 0.0000, 0.0000, 0.0000
21-May-2019 14:59:21.454,-0.0034, 0.0594,-1.0147,-0.0015,-0.0134,-0.0091,-0.0160, 0.0202,-0.0107, 0.0045,-0.0795,-1.7163,41.751930,-91.580979, 0.0000, 272.6561, 246.248627, 5.0, 4.0,Automotive,Low, 98.0139,-0.0740, 63.9180, 24.5019,-274.7418, 0.0000, 0.0000, 0.0000
21-May-2019 14:59:21.493, 0.0085, 0.0552,-1.0147, 0.0093,-0.0203,-0.0309,-0.0160, 0.0202,-0.0107, 0.0046,-0.0785,-1.7164,41.751930,-91.580979, 0.0000, 272.6561, 246.248627, 5.0, 4.0,Automotive,Low, 98.0139,-0.0740, 64.6282, 24.8570,-274.0667, 0.0000, 0.0000, 0.0000
21-May-2019 14:59:21.531, 0.0017, 0.0519,-1.0202, 0.0099,-0.0428, 0.0117,-0.0107, 0.0297,-0.0096, 0.0047,-0.0759,-1.7164,41.751930,-91.580979, 0.0000, 272.6561, 246.248627, 5.0, 4.0,Automotive,Low, 98.0139,-0.0740, 63.9180, 24.8570,-275.4168, 0.0000, 0.0000, 0.0000
21-May-2019 14:59:21.572,-0.0091, 0.0163,-1.0075, 0.0049,-0.0453,-0.0176,-0.0064, 0.0297,-0.0107, 0.0046,-0.0731,-1.7164,41.751930,-91.580979, 0.0000, 272.6561, 246.248627, 5.0, 4.0,Automotive,Low, 98.0139,-0.0740, 63.5629, 23.7917,-275.4168, 0.0000, 0.0000, 0.0000
21-May-2019 14:59:21.610,-0.0022, 0.0115,-1.0095, 0.0060,-0.0519,-0.0108,-0.0086, 0.0382,-0.0107, 0.0049,-0.0692,-1.7165,41.751930,-91.580979, 0.0000, 272.6561, 246.248627, 5.0, 4.0,Automotive,Low, 98.0139,-0.0740, 63.3853, 24.3243,-275.5856, 0.0000, 0.0000, 0.0000
21-May-2019 14:59:21.648, 0.0052,-0.0021,-1.0174, 0.0004,-0.0652,-0.0194,-0.0021, 0.0308,-0.0107, 0.0048,-0.0631,-1.7166,41.751930,-91.580979, 0.0000, 272.6561, 246.248627, 5.0, 4.0,Automotive,High, 98.0139,-0.0740, 65.6935, 25.2121,-274.7418, 0.0000, 0.0000, 0.0000
21-May-2019 14:59:21.685, 0.0010,-0.0072,-1.0191,-0.0034,-0.0594,-0.0141,-0.0064, 0.0276,-0.0117, 0.0044,-0.0588,-1.7167,41.751930,-91.580979, 0.0000, 272.6561, 246.248627, 5.0, 4.0,Automotive,High, 98.0139,-0.0740, 63.2078, 25.5672,-274.4042, 0.0000, 0.0000, 0.0000
21-May-2019 14:59:21.725, 0.0018,-0.0093,-1.0168,-0.0034,-0.0628,-0.0286,-0.0043, 0.0339,-0.0128, 0.0044,-0.0527,-1.7168,41.751930,-91.580979, 0.0000, 272.6561, 246.248627, 5.0, 4.0,Automotive,High, 98.0139,-0.0740, 63.0302, 24.3243,-275.5856, 0.0000, 0.0000, 0.0000
21-May-2019 14:59:21.765, 0.0072,-0.0178,-1.0221,-0.0045,-0.0609,-0.0229,-0.0086, 0.0297,-0.0128, 0.0042,-0.0498,-1.7169,41.751930,-91.580979, 0.0000, 272.6561, 246.248627, 5.0, 4.0,Automotive,High, 98.0139,-0.0740, 62.8527, 25.2121,-275.0793, 0.0000, 0.0000, 0.0000
21-May-2019 14:59:21.813, 0.0046,-0.0141,-1.0256, 0.0005,-0.0568,-0.0096,-0.0096, 0.0297,-0.0118, 0.0040,-0.0443,-1.7170,41.751930,-91.580979, 0.0000, 272.6561, 246.248627, 5.0, 4.0,Automotive,High, 98.0139,-0.0740, 64.0955, 24.3243,-274.5730, 0.0000, 0.0000, 0.0000
21-May-2019 14:59:21.843, 0.0088,-0.0183,-1.0297,-0.0181,-0.0539,-0.0128,-0.0118, 0.0308,-0.0107, 0.0037,-0.0413,-1.7171,41.751930,-91.580979, 0.0000, 272.6561, 246.248627, 5.0, 4.0,Automotive,High, 98.0139,-0.0740, 63.9180, 23.4366,-275.4168, 0.0000, 0.0000, 0.0000
21-May-2019 14:59:21.881, 0.0100,-0.0228,-1.0311,-0.0005,-0.0569,-0.0340,-0.0128, 0.0297,-0.0107, 0.0039,-0.0371,-1.7172,41.751930,-91.580979, 0.0000, 272.6561, 246.248627, 5.0, 4.0,Automotive,High, 98.0139,-0.0740, 64.9833, 24.5019,-273.0541, 0.0000, 0.0000, 0.0000
21-May-2019 14:59:21.930, 0.0024,-0.0229,-1.0254,-0.0087,-0.0529,-0.0141,-0.0182, 0.0329,-0.0107, 0.0040,-0.0319,-1.7173,41.751930,-91.580979, 0.0000, 272.6561, 246.248627, 5.0, 4.0,Automotive,High, 98.0139,-0.0740, 64.0955, 25.0345,-274.2355, 0.0000, 0.0000, 0.0000
21-May-2019 14:59:21.958,-0.0058,-0.0230,-1.0081, 0.0030,-0.0533,-0.0185,-0.0096, 0.0276,-0.0096, 0.0039,-0.0295,-1.7173,41.751930,-91.580979, 0.0000, 272.6561, 246.248627, 5.0, 4.0,Automotive,High, 98.0139,-0.0740, 64.2731, 23.7917,-274.0667, 0.0000, 0.0000, 0.0000
21-May-2019 14:59:21.997,-0.0047,-0.0192,-0.9921,-0.0025,-0.0533,-0.0248,-0.0192, 0.0233,-0.0097, 0.0037,-0.0248,-1.7174,41.751930,-91.580979, 0.0000, 272.6561, 246.248627, 5.0, 4.0,Automotive,High, 98.0139,-0.0740, 65.1608, 23.9692,-274.9105, 0.0000, 0.0000, 0.0000
21-May-2019 14:59:22.037,-0.0035,-0.0194,-0.9957,-0.0049,-0.0481,-0.0255,-0.0128, 0.0297,-0.0107, 0.0033,-0.0207,-1.7175,41.751930,-91.580979, 0.0000, 273.6562, 246.248627, 5.0, 4.0,Automotive,High, 98.0139,-0.0740, 63.0302, 23.2590,-273.8979, 0.0000, 0.0000, 0.0000
21-May-2019 14:59:22.074,-0.0093,-0.0170,-1.0058,-0.0062,-0.0391, 0.0019,-0.0139, 0.0244,-0.0107, 0.0029,-0.0180,-1.7175,41.751930,-91.580979, 0.0000, 273.6562, 246.516022, 5.0, 4.0,Automotive,High, 98.0139,-0.0740, 63.0302, 23.2590,-273.8979, 0.0000, 0.0000, 0.0000
21-May-2019 14:59:22.113,-0.0040,-0.0210,-1.0135,-0.0094,-0.0359,-0.0072,-0.0086, 0.0265,-0.0118, 0.0025,-0.0154,-1.7176,41.751930,-91.580979, 0.0000, 273.6562, 246.516022, 5.0, 4.0,Automotive,High, 98.0139,-0.0740, 63.0302, 23.9692,-274.2355, 0.0000, 0.0000, 0.0000
21-May-2019 14:59:22.153,-0.0029,-0.0194,-1.0152,-0.0011,-0.0307,-0.0130,-0.0192, 0.0350,-0.0129, 0.0025,-0.0136,-1.7177,41.751930,-91.580979, 0.0000, 273.6562, 246.516022, 5.0, 4.0,Automotive,High, 98.0139,-0.0740, 64.0955, 23.9692,-275.5856, 0.0000, 0.0000, 0.0000
21-May-2019 14:59:22.195,-0.0087,-0.0270,-1.0212,-0.0046,-0.0305,-0.0112,-0.0139, 0.0255,-0.0118, 0.0023,-0.0105,-1.7178,41.751930,-91.580979, 0.0000, 273.6562, 246.516022, 5.0, 4.0,Automotive,High, 98.0139,-0.0740, 64.0955, 25.0345,-273.5604, 0.0000, 0.0000, 0.0000
21-May-2019 14:59:22.231, 0.0007,-0.0241,-1.0157,-0.0023,-0.0281,-0.0118,-0.0171, 0.0329,-0.0128, 0.0020,-0.0090,-1.7179,41.751930,-91.580979, 0.0000, 273.6562, 246.516022, 5.0, 4.0,Automotive,High, 98.0139,-0.0740, 64.8057, 24.6794,-275.5856, 0.0000, 0.0000, 0.0000
21-May-2019 14:59:22.270,-0.0045,-0.0210,-1.0097, 0.0022,-0.0333,-0.0169,-0.0128, 0.0318,-0.0128, 0.0020,-0.0067,-1.7180,41.751930,-91.580979, 0.0000, 273.6562, 246.516022, 5.0, 4.0,Automotive,High, 98.0139,-0.0740, 65.1608, 24.3243,-274.2355, 0.0000, 0.0000, 0.0000
21-May-2019 14:59:22.310, 0.0015,-0.0224,-1.0106, 0.0019,-0.0283,-0.0098,-0.0139, 0.0329,-0.0128, 0.0019,-0.0045,-1.7182,41.751930,-91.580979, 0.0000, 273.6562, 246.516022, 5.0, 4.0,Automotive,High, 98.0139,-0.0740, 63.7404, 23.9692,-275.2480, 0.0000, 0.0000, 0.0000
21-May-2019 14:59:22.346,-0.0033,-0.0263,-1.0129,-0.0009,-0.0224,-0.0113,-0.0128, 0.0265,-0.0150, 0.0020,-0.0026,-1.7183,41.751930,-91.580979, 0.0000, 273.6562, 246.516022, 5.0, 4.0,Automotive,High, 98.0139,-0.0740, 64.6282, 24.8570,-275.7543, 0.0000, 0.0000, 0.0000
21-May-2019 14:59:22.385, 0.0036,-0.0274,-1.0064, 0.0043,-0.0244,-0.0144,-0.0150, 0.0318,-0.0107, 0.0023,-0.0001,-1.7184,41.751930,-91.580979, 0.0000, 273.6562, 246.516022, 5.0, 4.0,Automotive,High, 98.0139,-0.0740, 64.6282, 24.5019,-274.7418, 0.0000, 0.0000, 0.0000
21-May-2019 14:59:22.424, 0.0052,-0.0279,-1.0059, 0.0063,-0.0226,-0.0112,-0.0118, 0.0286,-0.0107, 0.0024, 0.0016,-1.7184,41.751930,-91.580979, 0.0000, 273.6562, 246.516022, 5.0, 4.0,Automotive,High, 98.0139,-0.0740, 63.9180, 24.1468,-276.4294, 0.0000, 0.0000, 0.0000
21-May-2019 14:59:22.467,-0.0034,-0.0258,-1.0073, 0.0063,-0.0247,-0.0183,-0.0160, 0.0244,-0.0118, 0.0026, 0.0033,-1.7185,41.751930,-91.580979, 0.0000, 273.6562, 246.516022, 5.0, 4.0,Automotive,High, 98.0139,-0.0740, 64.8057, 24.3243,-275.9231, 0.0000, 0.0000, 0.0000
21-May-2019 14:59:22.503, 0.0007,-0.0278,-1.0066, 0.0056,-0.0288,-0.0154,-0.0118, 0.0223,-0.0096, 0.0027, 0.0050,-1.7185,41.751930,-91.580979, 0.0000, 273.6562, 246.516022, 5.0, 4.0,Automotive,High, 98.0139,-0.0740, 62.8527, 24.1468,-276.0919, 0.0000, 0.0000, 0.0000
21-May-2019 14:59:22.541, 0.0006,-0.0233,-1.0075, 0.0001,-0.0188,-0.0165,-0.0128, 0.0233,-0.0118, 0.0026, 0.0065,-1.7186,41.751930,-91.580979, 0.0000, 273.6562, 246.516022, 5.0, 4.0,Automotive,High, 98.0139,-0.0740, 63.3853, 24.6794,-275.9231, 0.0000, 0.0000, 0.0000
21-May-2019 14:59:22.590, 0.0075,-0.0190,-1.0094, 0.0021,-0.0203,-0.0092,-0.0171, 0.0244,-0.0107, 0.0023, 0.0078,-1.7187,41.751930,-91.580979, 0.0000, 273.6562, 246.516022, 5.0, 4.0,Automotive,High, 98.0132,-0.0106, 63.2078, 24.8570,-276.0919, 0.0000, 0.0000, 0.0000
21-May-2019 14:59:22.618, 0.0025,-0.0236,-1.0126, 0.0001,-0.0170,-0.0173,-0.0171, 0.0244,-0.0107, 0.0020, 0.0090,-1.7188,41.751930,-91.580979, 0.0000, 273.6562, 246.516022, 5.0, 4.0,Automotive,High, 98.0132,-0.0106, 63.2078, 23.0815,-275.0793, 0.0000, 0.0000, 0.0000
21-May-2019 14:59:22.657,-0.0018,-0.0158,-1.0110,-0.0059,-0.0141,-0.0233,-0.0118, 0.0233,-0.0118, 0.0017, 0.0103,-1.7188,41.751930,-91.580979, 0.0000, 274.6930, 246.516022, 5.0, 4.0,Automotive,High, 98.0132,-0.0106, 63.3853, 26.0998,-274.9105, 0.0000, 0.0000, 0.0000
21-May-2019 14:59:22.698,-0.0089,-0.0121,-1.0209,-0.0037,-0.0109,-0.0210,-0.0192, 0.0265,-0.0118, 0.0013, 0.0111,-1.7188,41.751930,-91.580979, 0.0000, 274.6930, 246.516022, 5.0, 4.0,Automotive,High, 98.0132,-0.0106, 63.2078, 23.4366,-277.1044, 0.0000, 0.0000, 0.0000
21-May-2019 14:59:22.734, 0.0034,-0.0313,-1.0353,-0.0053,-0.0174,-0.0120,-0.0128, 0.0308,-0.0107, 0.0010, 0.0119,-1.7188,41.751930,-91.580979, 0.0000, 274.6930, 246.516022, 5.0, 4.0,Automotive,High, 98.0132,-0.0106, 63.5629, 24.8570,-277.1044, 0.0000, 0.0000, 0.0000
21-May-2019 14:59:22.773, 0.0034,-0.0410,-1.0242,-0.0049,-0.0279,-0.0090,-0.0118, 0.0255,-0.0096, 0.0009, 0.0134,-1.7188,41.751930,-91.580979, 0.0000, 274.6930, 246.516022, 5.0, 4.0,Automotive,High, 98.0132,-0.0106, 63.7404, 24.6794,-276.9356, 0.0000, 0.0000, 0.0000
21-May-2019 14:59:22.819,-0.0006,-0.0466,-1.0116, 0.0065,-0.0389,-0.0062,-0.0107, 0.0318,-0.0107, 0.0010, 0.0162,-1.7188,41.751930,-91.580979, 0.0000, 274.6930, 246.516022, 5.0, 4.0,Automotive,High, 98.0132,-0.0106, 63.0302, 24.3243,-275.5856, 0.0000, 0.0000, 0.0000
21-May-2019 14:59:22.850,-0.0003,-0.0590,-1.0018, 0.0031,-0.0422,-0.0112,-0.0096, 0.0318,-0.0096, 0.0010, 0.0186,-1.7189,41.751930,-91.580979, 0.0000, 274.6930, 246.516022, 5.0, 4.0,Automotive,High, 98.0132,-0.0106, 65.6935, 24.1468,-274.7418, 0.0000, 0.0000, 0.0000
21-May-2019 14:59:22.889, 0.0035,-0.0555,-1.0076, 0.0051,-0.0369,-0.0022,-0.0139, 0.0318,-0.0139, 0.0013, 0.0214,-1.7190,41.751930,-91.580979, 0.0000, 274.6930, 246.516022, 5.0, 4.0,Automotive,Low, 98.0132,-0.0106, 64.9833, 24.5019,-274.4042, 0.0000, 0.0000, 0.0000
21-May-2019 14:59:22.928,-0.0018,-0.0595,-1.0111,-0.0115,-0.0270,-0.0163,-0.0107, 0.0308,-0.0128, 0.0011, 0.0238,-1.7192,41.751930,-91.580979, 0.0000, 274.6930, 246.516022, 5.0, 4.0,Automotive,Low, 98.0132,-0.0106, 63.5629, 24.5019,-274.7418, 0.0000, 0.0000, 0.0000
21-May-2019 14:59:22.968, 0.0068,-0.0466,-1.0138,-0.0063,-0.0205,-0.0288,-0.0107, 0.0308,-0.0118, 0.0011, 0.0260,-1.7192,41.751930,-91.580979, 0.0000, 274.6930, 246.516022, 5.0, 4.0,Automotive,Low, 98.0132,-0.0106, 65.3383, 25.2121,-275.4168, 0.0000, 0.0000, 0.0000
21-May-2019 14:59:23.010, 0.0064,-0.0432,-1.0157,-0.0057,-0.0068,-0.0245,-0.0118, 0.0276,-0.0096, 0.0009, 0.0272,-1.7192,41.751930,-91.580979, 0.0000, 274.6930, 246.516022, 5.0, 4.0,Automotive,Low, 98.0132,-0.0106, 65.6935, 24.8570,-275.7543, 0.0000, 0.0000, 0.0000
21-May-2019 14:59:23.044,-0.0047,-0.0408,-1.0111,-0.0039,-0.0066,-0.0208,-0.0160, 0.0265,-0.0096, 0.0008, 0.0279,-1.7192,41.751930,-91.580979, 0.0000, 274.6930, 246.516022, 5.0, 4.0,Automotive,Low, 98.0132,-0.0106, 64.0955, 25.3896,-275.2480, 0.0000, 0.0000, 0.0000
21-May-2019 14:59:23.083, 0.0030,-0.0288,-1.0165,-0.0080,-0.0171,-0.0156,-0.0192, 0.0265,-0.0086, 0.0007, 0.0284,-1.7191,41.751930,-91.580979, 0.0000, 274.6930, 246.575195, 5.0, 4.0,Automotive,Low, 98.0132,-0.0106, 64.0955, 25.3896,-275.2480, 0.0000, 0.0000, 0.0000
21-May-2019 14:59:23.130, 0.0012,-0.0267,-1.0160,-0.0063,-0.0122, 0.0041,-0.0139, 0.0223,-0.0107, 0.0007, 0.0292,-1.7192,41.751930,-91.580979, 0.0000, 274.6930, 246.575195, 5.0, 4.0,Automotive,Low, 98.0132,-0.0106, 64.2731, 24.8570,-275.4168, 0.0000, 0.0000, 0.0000
21-May-2019 14:59:23.161,-0.0012,-0.0359,-1.0112,-0.0119, 0.0010,-0.0060,-0.0160, 0.0265,-0.0139, 0.0004, 0.0291,-1.7192,41.751930,-91.580979, 0.0000, 274.6930, 246.575195, 5.0, 4.0,Automotive,Low, 98.0132,-0.0106, 63.9180, 23.4366,-274.4042, 0.0000, 0.0000, 0.0000
21-May-2019 14:59:23.199, 0.0012,-0.0099,-0.9983,-0.0157,-0.0062,-0.0321,-0.0128, 0.0202,-0.0118, 0.0000, 0.0290,-1.7193,41.751930,-91.580979, 0.0000, 274.6930, 246.575195, 5.0, 4.0,Automotive,High, 98.0132,-0.0106, 64.9833, 23.0815,-275.0793, 0.0000, 0.0000, 0.0000
21-May-2019 14:59:23.238, 0.0113,-0.0217,-1.0168,-0.0110,-0.0004,-0.0127,-0.0150, 0.0223,-0.0129,-0.0000, 0.0284,-1.7194,41.751930,-91.580979, 0.0000, 274.6930, 246.575195, 5.0, 4.0,Automotive,High, 98.0132,-0.0106, 63.2078, 24.5019,-273.3917, 0.0000, 0.0000, 0.0000
21-May-2019 14:59:23.276, 0.0073,-0.0148,-1.0037,-0.0229, 0.0128,-0.0095,-0.0118, 0.0361,-0.0107, 0.0001, 0.0275,-1.7195,41.751930,-91.580979, 0.0000, 274.6930, 246.575195, 5.0, 4.0,Automotive,High, 98.0132,-0.0106, 62.4976, 26.6325,-276.7669, 0.0000, 0.0000, 0.0000
21-May-2019 14:59:23.315,-0.0074,-0.0257,-1.0106,-0.0033, 0.0177,-0.0158,-0.0214, 0.0403,-0.0086, 0.0005, 0.0265,-1.7194,41.751930,-91.580979, 0.0000, 274.6930, 246.575195, 5.0, 4.0,Automotive,High, 98.0132,-0.0106, 61.6098, 23.2590,-276.5981, 0.0000, 0.0000, 0.0000
21-May-2019 14:59:23.354,-0.0038,-0.0139,-1.0181,-0.0052, 0.0022,-0.0185,-0.0107, 0.0286,-0.0086, 0.0010, 0.0263,-1.7194,41.751930,-91.580979, 0.0000, 274.6930, 246.575195, 5.0, 4.0,Automotive,High, 98.0132,-0.0106, 63.0302, 24.3243,-274.9105, 0.0000, 0.0000, 0.0000
21-May-2019 14:59:23.402, 0.0133,-0.0073,-1.0175,-0.0153, 0.0052,-0.0107,-0.0150, 0.0276,-0.0107, 0.0013, 0.0253,-1.7194,41.751930,-91.580979, 0.0000, 274.6930, 246.575195, 5.0, 4.0,Automotive,High, 98.0132,-0.0106, 62.1425, 24.1468,-274.4042, 0.0000, 0.0000, 0.0000
21-May-2019 14:59:23.436,-0.0165,-0.0110,-1.0095, 0.0176, 0.0138,-0.0053,-0.0160, 0.0403,-0.0096, 0.0020, 0.0242,-1.7194,41.751930,-91.580979, 0.0000, 274.6930, 246.575195, 5.0, 4.0,Automotive,High, 98.0132,-0.0106, 61.6098, 26.0998,-274.9105, 0.0000, 0.0000, 0.0000
21-May-2019 14:59:23.471, 0.0187,-0.0123,-1.0126,-0.0167, 0.0201,-0.0043,-0.0096, 0.0297,-0.0128, 0.0022, 0.0235,-1.7195,41.751930,-91.580979, 0.0000, 274.6930, 246.575195, 5.0, 4.0,Automotive,High, 98.0132,-0.0106, 61.7874, 24.1468,-276.0919, 0.0000, 0.0000, 0.0000
21-May-2019 14:59:23.509,-0.0108, 0.0026,-1.0116,-0.0053, 0.0132,-0.0080,-0.0214, 0.0329,-0.0097, 0.0023, 0.0221,-1.7195,41.751930,-91.580979, 0.0000, 274.6930, 246.575195, 5.0, 4.0,Automotive,High, 98.0132,-0.0106, 63.2078, 25.5672,-275.4168, 0.0000, 0.0000, 0.0000
21-May-2019 14:59:23.549,-0.0134, 0.0028,-1.0199, 0.0117, 0.0244,-0.0243,-0.0171, 0.0276,-0.0086, 0.0024, 0.0210,-1.7196,41.751930,-91.580979, 0.0000, 274.6930, 246.575195, 5.0, 4.0,Automotive,High, 98.0132,-0.0106, 62.4976, 24.5019,-274.7418, 0.0000, 0.0000, 0.0000
21-May-2019 14:59:23.592,-0.0005, 0.0072,-1.0103,-0.0088, 0.0214,-0.0265,-0.0139, 0.0255,-0.0096, 0.0021, 0.0191,-1.7196,41.751930,-91.580979, 0.0000, 274.6930, 246.575195, 5.0, 4.0,Automotive,High, 98.0110, 0.1797, 62.1425, 24.1468,-273.7292, 0.0000, 0.0000, 0.0000
21-May-2019 14:59:23.626,-0.0006,-0.0013,-1.0112, 0.0116, 0.0226,-0.0098,-0.0096, 0.0233,-0.0107, 0.0024, 0.0177,-1.7196,41.751930,-91.580979, 0.0000, 275.7044, 246.575195, 5.0, 4.0,Automotive,High, 98.0110, 0.1797, 63.0302, 23.9692,-273.8979, 0.0000, 0.0000, 0.0000
21-May-2019 14:59:23.666, 0.0013,-0.0007,-1.0117, 0.0038, 0.0224,-0.0183,-0.0160, 0.0212,-0.0107, 0.0025, 0.0166,-1.7196,41.751930,-91.580979, 0.0000, 275.7044, 246.575195, 5.0, 4.0,Automotive,High, 98.0110, 0.1797, 62.8527, 23.7917,-275.7543, 0.0000, 0.0000, 0.0000
21-May-2019 14:59:23.704, 0.0132, 0.0056,-0.9953, 0.0038, 0.0179,-0.0197,-0.0086, 0.0265,-0.0085, 0.0027, 0.0157,-1.7196,41.751930,-91.580979, 0.0000, 275.7044, 246.575195, 5.0, 4.0,Automotive,High, 98.0110, 0.1797, 63.3853, 24.3243,-274.2355, 0.0000, 0.0000, 0.0000
21-May-2019 14:59:23.745,-0.0095, 0.0058,-1.0201, 0.0136, 0.0185,-0.0026,-0.0021, 0.0297,-0.0107, 0.0032, 0.0142,-1.7196,41.751930,-91.580979, 0.0000, 275.7044, 246.575195, 5.0, 4.0,Automotive,High, 98.0110, 0.1797, 63.3853, 23.9692,-274.5730, 0.0000, 0.0000, 0.0000
21-May-2019 14:59:23.780,-0.0042, 0.0093,-1.0080, 0.0060, 0.0146,-0.0052,-0.0021, 0.0297,-0.0107, 0.0029, 0.0131,-1.7196,41.751930,-91.580979, 0.0000, 275.7044, 246.575195, 5.0, 4.0,Automotive,High, 98.0110, 0.1797, 64.2731, 23.0815,-274.4042, 0.0000, 0.0000, 0.0000
21-May-2019 14:59:23.822, 0.0082, 0.0099,-1.0166,-0.0180, 0.0219, 0.0145,-0.0192, 0.0276,-0.0097, 0.0023, 0.0116,-1.7195,41.751930,-91.580979, 0.0000, 275.7044, 246.575195, 5.0, 4.0,Automotive,High, 98.0110, 0.1797, 64.9833, 24.1468,-274.4042, 0.0000, 0.0000, 0.0000
21-May-2019 14:59:23.858,-0.0060, 0.0094,-1.0145,-0.0022, 0.0154, 0.0067,-0.0075, 0.0392,-0.0085, 0.0020, 0.0103,-1.7195,41.751930,-91.580979, 0.0000, 275.7044, 246.575195, 5.0, 4.0,Automotive,High, 98.0110, 0.1797, 64.4506, 24.3243,-275.5856, 0.0000, 0.0000, 0.0000
21-May-2019 14:59:23.900, 0.0037,-0.0066,-1.0202,-0.0041, 0.0284, 0.0013,-0.0160, 0.0339,-0.0096, 0.0018, 0.0087,-1.7195,41.751930,-91.580979, 0.0000, 275.7044, 246.575195, 5.0, 4.0,Automotive,High, 98.0110, 0.1797, 67.2914, 25.3896,-273.8979, 0.0000, 0.0000, 0.0000
21-May-2019 14:59:23.942, 0.0163, 0.0048,-1.0123, 0.0008, 0.0233,-0.0071,-0.0118, 0.0361,-0.0107, 0.0020, 0.0076,-1.7196,41.751930,-91.580979, 0.0000, 275.7044, 246.575195, 5.0, 4.0,Automotive,High, 98.0110, 0.1797, 64.6282, 24.8570,-276.0919, 0.0000, 0.0000, 0.0000
21-May-2019 14:59:23.975, 0.0127, 0.0117,-1.0308, 0.0001, 0.0112,-0.0118,-0.0150, 0.0297,-0.0139, 0.0023, 0.0068,-1.7197,41.751930,-91.580979, 0.0000, 275.7044, 246.575195, 5.0, 4.0,Automotive,High, 98.0110, 0.1797, 65.1608, 25.0345,-275.2480, 0.0000, 0.0000, 0.0000
21-May-2019 14:59:24.013, 0.0067, 0.0175,-1.0243, 0.0194, 0.0170,-0.0332,-0.0150, 0.0297,-0.0139, 0.0026, 0.0061,-1.7198,41.751930,-91.580979, 0.0000, 275.7044, 246.575195, 5.0, 4.0,Automotive,High, 98.0110, 0.1797, 65.1608, 23.6141,-276.2606, 0.0000, 0.0000, 0.0000
21-May-2019 14:59:24.062,-0.0067, 0.0076,-1.0166,-0.0012, 0.0227,-0.0230,-0.0128, 0.0286,-0.0128, 0.0027, 0.0045,-1.7199,41.751902,-91.581031, 1.7900, 275.7044, 246.165085, 5.0, 4.0,Automotive,High, 98.0110, 0.1797, 64.4506, 23.6141,-275.2480, 0.0000, 0.0000, 0.0000
21-May-2019 14:59:24.095,-0.0008, 0.0208,-1.0159,-0.0004, 0.0252,-0.0290,-0.0128, 0.0382,-0.0107, 0.0023, 0.0038,-1.7199,41.751902,-91.581031, 1.7900, 275.7044, 246.165085, 5.0, 4.0,Automotive,High, 98.0110, 0.1797, 63.7404, 23.6141,-275.5856, 0.0000, 0.0000, 0.0000
21-May-2019 14:59:24.130, 0.0085, 0.0219,-1.0160,-0.0069, 0.0186,-0.0132,-0.0128, 0.0382,-0.0107, 0.0021, 0.0025,-1.7199,41.751902,-91.581031, 1.7900, 275.7044, 246.165085, 5.0, 4.0,Automotive,High, 98.0110, 0.1797, 64.9833, 23.4366,-275.4168, 0.0000, 0.0000, 0.0000
21-May-2019 14:59:24.171, 0.0065, 0.0176,-1.0289, 0.0014, 0.0116,-0.0001,-0.0182, 0.0307,-0.0086, 0.0024, 0.0008,-1.7199,41.751902,-91.581031, 1.7900, 275.7044, 246.165085, 5.0, 4.0,Automotive,High, 98.0110, 0.1797, 64.9833, 23.4366,-275.4168, 0.0000, 0.0000, 0.0000
21-May-2019 14:59:24.208, 0.0245, 0.0212,-1.0061, 0.0102, 0.0178, 0.0027,-0.0214, 0.0265,-0.0086, 0.0025,-0.0006,-1.7199,41.751902,-91.581031, 1.7900, 275.7044, 246.165085, 5.0, 4.0,Automotive,High, 98.0110, 0.1797, 63.3853, 24.3243,-275.5856, 0.0000, 0.0000, 0.0000
21-May-2019 14:59:24.249, 0.0207, 0.0134,-1.0176, 0.0010, 0.0197,-0.0009,-0.0064, 0.0233,-0.0150, 0.0029,-0.0019,-1.7201,41.751902,-91.581031, 1.7900, 275.7044, 246.165085, 5.0, 4.0,Automotive,High, 98.0110, 0.1797, 64.0955, 23.6141,-275.2480, 0.0000, 0.0000, 0.0000
21-May-2019 14:59:24.285, 0.0177, 0.0139,-1.0056,-0.0236, 0.0135,-0.0025,-0.0246, 0.0212,-0.0140, 0.0025,-0.0025,-1.7202,41.751902,-91.581031, 1.7900, 275.7044, 246.165085, 5.0, 4.0,Automotive,High, 98.0110, 0.1797, 63.2078, 25.2121,-275.0793, 0.0000, 0.0000, 0.0000
21-May-2019 14:59:24.329, 0.0170, 0.0229,-1.0302,-0.0146, 0.0221,-0.0097,-0.0118, 0.0265,-0.0150, 0.0025,-0.0035,-1.7205,41.751902,-91.581031, 1.7900, 275.7044, 246.165085, 5.0, 4.0,Automotive,High, 98.0110, 0.1797, 64.4506, 24.6794,-274.9105, 0.0000, 0.0000, 0.0000
21-May-2019 14:59:24.366, 0.0114, 0.0233,-1.0335,-0.0023, 0.0173,-0.0186,-0.0171, 0.0223,-0.0150, 0.0021,-0.0048,-1.7206,41.751902,-91.581031, 1.7900, 275.7044, 246.165085, 5.0, 4.0,Automotive,High, 98.0110, 0.1797, 63.9180, 25.2121,-273.3917, 0.0000, 0.0000, 0.0000
21-May-2019 14:59:24.409,-0.0209, 0.0205,-1.0417,-0.0144, 0.0215,-0.0313,-0.0160, 0.0392,-0.0128, 0.0016,-0.0061,-1.7207,41.751902,-91.581031, 1.7900, 275.7044, 246.165085, 5.0, 4.0,Automotive,High, 98.0110, 0.1797, 63.5629, 25.9223,-272.0416, 0.0000, 0.0000, 0.0000
21-May-2019 14:59:24.441,-0.0351, 0.0276,-1.0012, 0.0117, 0.0129,-0.0428,-0.0118, 0.0456,-0.0128, 0.0021,-0.0064,-1.7207,41.751902,-91.581031, 1.7900, 275.7044, 246.165085, 5.0, 4.0,Automotive,High, 98.0110, 0.1797, 63.2078, 23.7917,-274.0667, 0.0000, 0.0000, 0.0000
21-May-2019 14:59:24.480,-0.0116, 0.0226,-0.9950, 0.0008, 0.0129,-0.0284,-0.0128, 0.0361,-0.0096, 0.0019,-0.0078,-1.7207,41.751902,-91.581031, 1.7900, 275.7044, 246.165085, 5.0, 4.0,Automotive,High, 98.0110, 0.1797, 61.7874, 24.5019,-275.0793, 0.0000, 0.0000, 0.0000
21-May-2019 14:59:24.518,-0.0047, 0.0270,-1.0262, 0.0023, 0.0189, 0.0089,-0.0054, 0.0382,-0.0117, 0.0021,-0.0085,-1.7208,41.751902,-91.581031, 1.7900, 275.7044, 246.165085, 5.0, 4.0,Automotive,High, 98.0110, 0.1797, 63.7404, 23.9692,-273.8979, 0.0000, 0.0000, 0.0000
21-May-2019 14:59:24.561, 0.0181, 0.0270,-1.0197,-0.0102, 0.0171,-0.0000,-0.0139, 0.0424,-0.0150, 0.0025,-0.0096,-1.7209,41.751902,-91.581031, 1.7900, 275.7044, 246.165085, 5.0, 4.0,Automotive,High, 98.0110, 0.1797, 64.2731, 24.8570,-272.0416, 0.0000, 0.0000, 0.0000
21-May-2019 14:59:24.598, 0.0002, 0.0133,-1.0347, 0.0222, 0.0189,-0.0019,-0.0278, 0.0520,-0.0129, 0.0039,-0.0106,-1.7211,41.751902,-91.581031, 1.7900, 275.7044, 246.165085, 5.0, 4.0,Automotive,High, 98.0110, 0.1797, 63.3853, 23.9692,-273.5604, 0.0000, 0.0000, 0.0000
21-May-2019 14:59:24.636, 0.0015, 0.0207,-1.0157, 0.0091, 0.0116,-0.0132,-0.0150, 0.0382,-0.0150, 0.0048,-0.0115,-1.7213,41.751902,-91.581031, 1.7900, 275.7044, 246.165085, 5.0, 4.0,Automotive,High, 98.0102, 0.2431, 63.0302, 25.7447,-274.5730, 0.0000, 0.0000, 0.0000
21-May-2019 14:59:24.673, 0.0001, 0.0240,-1.0071, 0.0081, 0.0079,-0.0143,-0.0182, 0.0286,-0.0118, 0.0052,-0.0123,-1.7214,41.751902,-91.581031, 1.7900, 275.7044, 246.165085, 5.0, 4.0,Automotive,High, 98.0102, 0.2431, 64.8057, 23.6141,-273.8979, 0.0000, 0.0000, 0.0000
21-May-2019 14:59:24.712,-0.0040, 0.0326,-1.0230,-0.0085, 0.0062,-0.0251,-0.0192, 0.0371,-0.0086, 0.0054,-0.0137,-1.7214,41.751902,-91.581031, 1.7900, 275.7044, 246.165085, 5.0, 4.0,Automotive,High, 98.0102, 0.2431, 63.0302, 24.6794,-272.8854, 0.0000, 0.0000, 0.0000
21-May-2019 14:59:24.750,-0.0016, 0.0236,-1.0307, 0.0253, 0.0209,-0.0029,-0.0128, 0.0498,-0.0117, 0.0058,-0.0150,-1.7213,41.751902,-91.581031, 1.7900, 275.7044, 246.165085, 5.0, 4.0,Automotive,High, 98.0102, 0.2431, 63.9180, 25.2121,-274.7418, 0.0000, 0.0000, 0.0000
21-May-2019 14:59:24.788, 0.0226, 0.0213,-1.0501,-0.0121, 0.0222,-0.0222,-0.0107, 0.0276,-0.0107, 0.0054,-0.0161,-1.7213,41.751902,-91.581031, 1.7900, 275.7044, 246.165085, 5.0, 4.0,Automotive,High, 98.0102, 0.2431, 63.0302, 25.0345,-274.5730, 0.0000, 0.0000, 0.0000
21-May-2019 14:59:24.830, 0.0329, 0.0306,-0.9960, 0.0131,-0.0052,-0.0549,-0.0107, 0.0286,-0.0107, 0.0056,-0.0167,-1.7213,41.751902,-91.581031, 1.7900, 275.7044, 246.165085, 5.0, 4.0,Automotive,High, 98.0102, 0.2431, 63.9180, 24.8570,-274.7418, 0.0000, 0.0000, 0.0000
21-May-2019 14:59:24.866, 0.0038, 0.0287,-1.0105, 0.0396, 0.0225,-0.0363,-0.0224, 0.0308,-0.0129, 0.0063,-0.0181,-1.7214,41.751902,-91.581031, 1.7900, 275.7044, 246.165085, 5.0, 4.0,Automotive,High, 98.0102, 0.2431, 64.9833, 25.5672,-275.7543, 0.0000, 0.0000, 0.0000
21-May-2019 14:59:24.907, 0.0132, 0.0415,-0.9989,-0.0017, 0.0055,-0.0059,-0.0160, 0.0424,-0.0139, 0.0061,-0.0191,-1.7216,41.751902,-91.581031, 1.7900, 275.7044, 246.165085, 5.0, 4.0,Automotive,High, 98.0102, 0.2431, 64.0955, 26.0998,-275.2480, 0.0000, 0.0000, 0.0000
21-May-2019 14:59:24.944, 0.0096, 0.0287,-0.9901,-0.0207, 0.0079,-0.0126,-0.0192, 0.0509,-0.0118, 0.0059,-0.0205,-1.7218,41.751902,-91.581031, 1.7900, 275.7044, 246.165085, 5.0, 4.0,Automotive,High, 98.0102, 0.2431, 64.2731, 25.9223,-276.4294, 0.0000, 0.0000, 0.0000
21-May-2019 14:59:24.983, 0.0115, 0.0400,-0.9721,-0.0082,-0.0081, 0.0063,-0.0192, 0.0509,-0.0118, 0.0063,-0.0207,-1.7219,41.751902,-91.581031, 1.7900, 275.7044, 246.165085, 5.0, 4.0,Automotive,High, 98.0102, 0.2431, 65.6935, 26.6325,-276.4294, 0.0000, 0.0000, 0.0000
21-May-2019 14:59:25.022,-0.0501, 0.0215,-0.9975, 0.0458, 0.0154, 0.0230,-0.0160, 0.0350,-0.0128, 0.0064,-0.0212,-1.7220,41.751902,-91.581031, 1.7900, 275.7044, 246.165085, 5.0, 4.0,Automotive,High, 98.0102, 0.2431, 66.0486, 25.5672,-277.7794, 0.0000, 0.0000, 0.0000
21-May-2019 14:59:25.060, 0.0789, 0.0372,-0.9606,-0.0123,-0.0070,-0.0140,-0.0395, 0.0265,-0.0140, 0.0054,-0.0214,-1.7222,41.751902,-91.581031, 1.7900, 275.7044, 246.165085, 5.0, 4.0,Automotive,High, 98.0102, 0.2431, 65.1608, 26.0998,-277.9482, 0.0000, 0.0000, 0.0000
21-May-2019 14:59:25.099, 0.0318, 0.0195,-1.0027,-0.0005, 0.0148, 0.0004,-0.0395, 0.0265,-0.0140, 0.0056,-0.0217,-1.7224,41.751912,-91.581078, 2.5000, 276.7817, 246.117004, 5.0, 4.0,Automotive,High, 98.0102, 0.2431, 65.6935, 27.6978,-278.7920, 0.0000, 0.0000, 0.0000
21-May-2019 14:59:25.143, 0.0274, 0.0204,-1.0148,-0.0203, 0.0059,-0.0196, 0.0021, 0.0488,-0.0149, 0.0065,-0.0216,-1.7225,41.751912,-91.581078, 2.5000, 276.7817, 246.117004, 5.0, 4.0,Automotive,High, 98.0102, 0.2431, 66.5812, 26.0998,-278.6232, 0.0000, 0.0000, 0.0000
21-May-2019 14:59:25.177, 0.0119, 0.0304,-1.0242,-0.0038, 0.0173,-0.0232,-0.0160, 0.0329,-0.0107, 0.0066,-0.0222,-1.7225,41.751912,-91.581078, 2.5000, 276.7817, 246.117004, 5.0, 4.0,Automotive,High, 98.0102, 0.2431, 66.9363, 23.9692,-280.6484, 0.0000, 0.0000, 0.0000
21-May-2019 14:59:25.217, 0.0117, 0.0270,-1.0288, 0.0153, 0.0043,-0.0389,-0.0160, 0.0329,-0.0107, 0.0065,-0.0223,-1.7225,41.751912,-91.581078, 2.5000, 276.7817, 246.117004, 5.0, 4.0,Automotive,High, 98.0102, 0.2431, 66.9363, 23.9692,-280.6484, 0.0000, 0.0000, 0.0000
21-May-2019 14:59:25.255,-0.0000, 0.0379,-1.0319, 0.0091, 0.0137,-0.0266,-0.0256, 0.0254,-0.0097, 0.0065,-0.0225,-1.7225,41.751912,-91.581078, 2.5000, 276.7817, 246.117004, 5.0, 4.0,Automotive,High, 98.0102, 0.2431, 67.1139, 26.6325,-279.8046, 0.0000, 0.0000, 0.0000
21-May-2019 14:59:25.297, 0.0160, 0.0485,-0.9998, 0.0011,-0.0039,-0.0317,-0.0203, 0.0286,-0.0129, 0.0065,-0.0236,-1.7226,41.751912,-91.581078, 2.5000, 276.7817, 246.117004, 5.0, 4.0,Automotive,High, 98.0102, 0.2431, 68.0016, 24.3243,-280.3109, 0.0000, 0.0000, 0.0000
21-May-2019 14:59:25.332, 0.0088, 0.0301,-0.9953, 0.0058,-0.0076,-0.0088,-0.0214, 0.0350,-0.0118, 0.0071,-0.0247,-1.7227,41.751912,-91.581078, 2.5000, 276.7817, 246.117004, 5.0, 4.0,Automotive,High, 98.0102, 0.2431, 66.9363, 23.6141,-279.6358, 0.0000, 0.0000, 0.0000
21-May-2019 14:59:25.370, 0.0045, 0.0275,-1.0257, 0.0140, 0.0155, 0.0106,-0.0214, 0.0265,-0.0118, 0.0071,-0.0256,-1.7229,41.751912,-91.581078, 2.5000, 276.7817, 246.117004, 5.0, 4.0,Automotive,High, 98.0102, 0.2431, 66.9363, 23.6141,-279.9733, 0.0000, 0.0000, 0.0000
21-May-2019 14:59:25.411,-0.0081, 0.0266,-1.0217, 0.0071, 0.0080,-0.0203,-0.0128, 0.0180,-0.0139, 0.0068,-0.0259,-1.7230,41.751912,-91.581078, 2.5000, 276.7817, 246.117004, 5.0, 4.0,Automotive,Low, 98.0102, 0.2431, 66.9363, 21.8386,-280.3109, 0.0000, 0.0000, 0.0000
21-May-2019 14:59:25.448, 0.0157, 0.0406,-1.0217,-0.0135,-0.0005,-0.0222,-0.0267, 0.0509,-0.0107, 0.0059,-0.0264,-1.7231,41.751912,-91.581078, 2.5000, 276.7817, 246.117004, 5.0, 4.0,Automotive,Low, 98.0102, 0.2431, 66.4037, 22.7264,-280.8171, 0.0000, 0.0000, 0.0000
21-May-2019 14:59:25.487,-0.0076, 0.0348,-1.0051,-0.0088, 0.0074,-0.0268,-0.0171, 0.0382,-0.0118, 0.0061,-0.0270,-1.7232,41.751912,-91.581078, 2.5000, 276.7817, 246.117004, 5.0, 4.0,Automotive,Low, 98.0102, 0.2431, 66.9363, 22.1937,-278.9608, 0.0000, 0.0000, 0.0000
21-May-2019 14:59:25.526, 0.0085, 0.0280,-1.0180,-0.0038, 0.0153,-0.0028,-0.0160, 0.0392,-0.0107, 0.0059,-0.0280,-1.7232,41.751912,-91.581078, 2.5000, 276.7817, 246.117004, 5.0, 4.0,Automotive,Low, 98.0102, 0.2431, 66.0486, 22.0162,-277.4419, 0.0000, 0.0000, 0.0000
21-May-2019 14:59:25.565, 0.0089, 0.0371,-0.9962,-0.0063, 0.0117,-0.0087,-0.0235, 0.0413,-0.0075, 0.0063,-0.0284,-1.7232,41.751912,-91.581078, 2.5000, 275.5970, 246.117004, 5.0, 4.0,Automotive,Low, 98.0102, 0.2431, 64.9833, 21.6611,-277.7794, 0.0000, 0.0000, 0.0000
21-May-2019 14:59:25.603, 0.0230, 0.0205,-1.0190, 0.0067, 0.0018,-0.0146,-0.0182, 0.0244,-0.0129, 0.0067,-0.0288,-1.7233,41.751912,-91.581078, 2.5000, 275.5970, 246.117004, 5.0, 4.0,Automotive,Low, 98.0102, 0.2431, 65.5159, 21.4835,-278.2857, 0.0000, 0.0000, 0.0000
21-May-2019 14:59:25.642,-0.0011, 0.0267,-1.0186, 0.0245, 0.0100,-0.0128,-0.0182, 0.0382,-0.0107, 0.0075,-0.0291,-1.7235,41.751912,-91.581078, 2.5000, 275.5970, 246.117004, 5.0, 4.0,Automotive,Low, 98.0096, 0.2986, 64.0955, 21.4835,-277.2732, 0.0000, 0.0000, 0.0000
21-May-2019 14:59:25.684,-0.0092, 0.0468,-1.0340, 0.0142,-0.0011,-0.0111,-0.0160, 0.0488,-0.0160, 0.0078,-0.0293,-1.7237,41.751912,-91.581078, 2.5000, 274.4402, 246.117004, 5.0, 4.0,Automotive,Low, 98.0096, 0.2986, 63.2078, 23.4366,-278.1170, 0.0000, 0.0000, 0.0000
21-May-2019 14:59:25.720,-0.0258, 0.0297,-1.0254, 0.0045,-0.0056,-0.0212,-0.0246, 0.0361,-0.0129, 0.0072,-0.0296,-1.7240,41.751912,-91.581078, 2.5000, 274.4402, 246.117004, 5.0, 4.0,Automotive,Low, 98.0096, 0.2986, 63.0302, 22.9039,-276.9356, 0.0000, 0.0000, 0.0000
21-May-2019 14:59:25.761,-0.0090, 0.0450,-1.0082, 0.0009,-0.0065,-0.0162,-0.0086, 0.0244,-0.0107, 0.0063,-0.0298,-1.7241,41.751912,-91.581078, 2.5000, 274.4402, 246.117004, 5.0, 4.0,Automotive,Low, 98.0096, 0.2986, 63.0302, 22.1937,-277.6107, 0.0000, 0.0000, 0.0000
21-May-2019 14:59:25.799, 0.0046, 0.0294,-0.9886,-0.0048,-0.0023,-0.0184,-0.0182, 0.0254,-0.0086, 0.0057,-0.0300,-1.7241,41.751912,-91.581078, 2.5000, 274.4402, 246.117004, 5.0, 4.0,Automotive,Low, 98.0096, 0.2986, 63.2078, 22.7264,-277.7794, 0.0000, 0.0000, 0.0000
21-May-2019 14:59:25.836,-0.0114, 0.0394,-0.9942,-0.0140, 0.0145,-0.0315,-0.0075, 0.0308,-0.0117, 0.0057,-0.0303,-1.7242,41.751912,-91.581078, 2.5000, 274.4402, 246.117004, 5.0, 4.0,Automotive,Low, 98.0096, 0.2986, 61.4323, 23.4366,-275.7543, 0.0000, 0.0000, 0.0000
21-May-2019 14:59:25.874, 0.0013, 0.0382,-1.0206,-0.0051, 0.0026,-0.0207,-0.0278, 0.0371,-0.0139, 0.0063,-0.0305,-1.7243,41.751912,-91.581078, 2.5000, 273.3615, 246.117004, 5.0, 4.0,Automotive,Low, 98.0096, 0.2986, 62.8527, 23.7917,-275.4168, 0.0000, 0.0000, 0.0000
21-May-2019 14:59:25.923, 0.0018, 0.0329,-0.9969,-0.0087,-0.0169,-0.0101,-0.0224, 0.0329,-0.0118, 0.0060,-0.0309,-1.7244,41.751912,-91.581078, 2.5000, 273.3615, 246.117004, 5.0, 4.0,Automotive,Low, 98.0096, 0.2986, 63.2078, 23.0815,-274.7418, 0.0000, 0.0000, 0.0000
21-May-2019 14:59:25.953, 0.0085, 0.0425,-1.0091, 0.0109, 0.0139, 0.0360,-0.0203, 0.0127,-0.0129, 0.0060,-0.0314,-1.7245,41.751912,-91.581078, 2.5000, 273.3615, 246.117004, 5.0, 4.0,Automotive,Low, 98.0096, 0.2986, 62.3200, 23.2590,-274.5730, 0.0000, 0.0000, 0.0000
21-May-2019 14:59:25.990, 0.0252, 0.0208,-1.0037, 0.0168, 0.0016, 0.0018,-0.0053, 0.0286,-0.0117, 0.0055,-0.0314,-1.7245,41.751912,-91.581078, 2.5000, 273.3615, 246.117004, 5.0, 4.0,Automotive,Low, 98.0096, 0.2986, 61.6098, 24.6794,-273.5604, 0.0000, 0.0000, 0.0000
21-May-2019 14:59:26.033, 0.0240, 0.0329,-1.0314, 0.0257, 0.0037, 0.0147,-0.0128, 0.0308,-0.0150, 0.0058,-0.0309,-1.7247,41.751912,-91.581078, 2.5000, 273.3615, 246.117004, 5.0, 4.0,Automotive,Low, 98.0096, 0.2986, 63.0302, 23.9692,-273.8979, 0.0000, 0.0000, 0.0000
21-May-2019 14:59:26.068, 0.0035, 0.0296,-1.0344,-0.0082, 0.0098,-0.0075,-0.0043, 0.0191,-0.0150, 0.0055,-0.0310,-1.7248,41.751912,-91.581078, 2.5000, 273.3615, 246.117004, 5.0, 4.0,Automotive,Low, 98.0096, 0.2986, 64.2731, 24.1468,-272.7166, 0.0000, 0.0000, 0.0000
21-May-2019 14:59:26.117,-0.0148, 0.0291,-1.0186,-0.0080, 0.0014,-0.0291,-0.0150, 0.0180,-0.0118, 0.0052,-0.0306,-1.7250,41.751921,-91.581113, 2.9800, 273.3615, 245.873642, 5.0, 4.0,Automotive,Low, 98.0096, 0.2986, 62.8527, 24.1468,-274.0667, 0.0000, 0.0000, 0.0000
21-May-2019 14:59:26.145,-0.0025, 0.0244,-1.0096, 0.0158, 0.0010,-0.0088, 0.0043, 0.0265,-0.0106, 0.0049,-0.0304,-1.7250,41.751921,-91.581113, 2.9800, 273.3615, 245.873642, 5.0, 4.0,Automotive,Low, 98.0096, 0.2986, 61.6098, 24.6794,-273.5604, 0.0000, 0.0000, 0.0000
21-May-2019 14:59:26.193,-0.0089, 0.0398,-0.9978,-0.0131, 0.0081,-0.0421,-0.0224, 0.0212,-0.0097, 0.0044,-0.0302,-1.7251,41.751921,-91.581113, 2.9800, 273.3615, 245.873642, 5.0, 4.0,Automotive,Low, 98.0096, 0.2986, 64.2731, 25.5672,-274.7418, 0.0000, 0.0000, 0.0000
21-May-2019 14:59:26.226,-0.0072, 0.0386,-0.9995,-0.0201,-0.0059,-0.0289,-0.0224, 0.0212,-0.0097, 0.0042,-0.0299,-1.7251,41.751921,-91.581113, 2.9800, 273.3615, 245.873642, 5.0, 4.0,Automotive,Low, 98.0096, 0.2986, 64.2731, 25.5672,-274.7418, 0.0000, 0.0000, 0.0000
21-May-2019 14:59:26.263,-0.0066, 0.0193,-1.0026,-0.0067, 0.0175,-0.0460,-0.0139, 0.0350,-0.0128, 0.0042,-0.0305,-1.7253,41.751921,-91.581113, 2.9800, 273.3615, 245.873642, 5.0, 4.0,Automotive,Low, 98.0096, 0.2986, 62.3200, 25.3896,-274.2355, 0.0000, 0.0000, 0.0000
21-May-2019 14:59:26.300, 0.0078, 0.0415,-0.9832,-0.0004, 0.0148,-0.0430,-0.0235, 0.0191,-0.0129, 0.0044,-0.0307,-1.7255,41.751921,-91.581113, 2.9800, 273.3615, 245.873642, 5.0, 4.0,Automotive,Low, 98.0096, 0.2986, 68.3567, 25.7447,-269.1727, 0.0000, 0.0000, 0.0000
21-May-2019 14:59:26.345, 0.0035, 0.0304,-1.0084, 0.0199, 0.0006,-0.0411,-0.0235, 0.0191,-0.0129, 0.0049,-0.0305,-1.7256,41.751921,-91.581113, 2.9800, 273.3615, 245.873642, 5.0, 4.0,Automotive,Low, 98.0096, 0.2986, 64.9833, 27.6978,-273.3917, 0.0000, 0.0000, 0.0000
21-May-2019 14:59:26.378, 0.0094, 0.0472,-1.0190, 0.0250, 0.0027,-0.0160,-0.0128, 0.0212,-0.0128, 0.0053,-0.0309,-1.7258,41.751921,-91.581113, 2.9800, 273.3615, 245.873642, 5.0, 4.0,Automotive,Low, 98.0096, 0.2986, 65.6935, 27.3427,-275.0793, 0.0000, 0.0000, 0.0000
21-May-2019 14:59:26.417, 0.0132, 0.0450,-1.0149, 0.0230, 0.0301, 0.0133,-0.0128, 0.0212,-0.0128, 0.0060,-0.0319,-1.7259,41.751921,-91.581113, 2.9800, 274.4046, 245.873642, 5.0, 4.0,Automotive,Low, 98.0096, 0.2986, 64.0955, 26.8100,-275.2480, 0.0000, 0.0000, 0.0000
21-May-2019 14:59:26.465, 0.0180, 0.0258,-1.0375, 0.0223, 0.0071,-0.0075,-0.0310, 0.0413,-0.0107, 0.0068,-0.0323,-1.7260,41.751921,-91.581113, 2.9800, 274.4046, 245.873642, 5.0, 4.0,Automotive,Low, 98.0096, 0.2986, 64.6282, 26.6325,-277.4419, 0.0000, 0.0000, 0.0000
21-May-2019 14:59:26.498, 0.0161, 0.0471,-1.0175, 0.0389,-0.0098,-0.0055, 0.0021, 0.0181,-0.0128, 0.0073,-0.0319,-1.7260,41.751921,-91.581113, 2.9800, 274.4046, 245.873642, 5.0, 4.0,Automotive,Low, 98.0096, 0.2986, 66.2261, 25.3896,-277.2732, 0.0000, 0.0000, 0.0000
21-May-2019 14:59:26.535,-0.0108, 0.0480,-1.0240, 0.0394, 0.0020,-0.0286,-0.0224, 0.0117,-0.0097, 0.0070,-0.0325,-1.7260,41.751921,-91.581113, 2.9800, 274.4046, 245.873642, 5.0, 4.0,Automotive,Low, 98.0096, 0.2986, 64.8057, 23.9692,-278.6232, 0.0000, 0.0000, 0.0000
21-May-2019 14:59:26.572, 0.0053, 0.0450,-1.0402, 0.0099, 0.0078, 0.0016,-0.0278, 0.0254,-0.0086, 0.0063,-0.0329,-1.7261,41.751921,-91.581113, 2.9800, 274.4046, 245.873642, 5.0, 4.0,Automotive,Low, 98.0096, 0.2986, 62.1425, 24.1468,-279.1295, 0.0000, 0.0000, 0.0000
21-May-2019 14:59:26.611,-0.0073, 0.0389,-1.0166,-0.0067, 0.0008,-0.0327,-0.0118, 0.0297,-0.0139, 0.0059,-0.0333,-1.7262,41.751921,-91.581113, 2.9800, 274.4046, 245.873642, 5.0, 4.0,Automotive,Low, 98.0096, 0.2986, 62.6751, 23.9692,-277.9482, 0.0000, 0.0000, 0.0000
21-May-2019 14:59:26.660, 0.0004, 0.0340,-1.0216,-0.0115, 0.0022, 0.0063,-0.0107, 0.0318,-0.0128, 0.0052,-0.0335,-1.7263,41.751921,-91.581113, 2.9800, 274.4046, 245.873642, 5.0, 4.0,Automotive,Low, 98.0096, 0.2986, 62.6751, 22.9039,-276.9356, 0.0000, 0.0000, 0.0000
21-May-2019 14:59:26.689,-0.0016, 0.0347,-1.0245,-0.0065, 0.0011,-0.0157,-0.0214, 0.0308,-0.0129, 0.0050,-0.0336,-1.7264,41.751921,-91.581113, 2.9800, 274.4046, 245.873642, 5.0, 4.0,Automotive,Low, 98.0096, 0.2986, 63.0302, 21.4835,-274.9105, 0.0000, 0.0000, 0.0000
21-May-2019 14:59:26.727, 0.0047, 0.0439,-1.0060,-0.0080,-0.0112,-0.0154,-0.0182, 0.0276,-0.0139, 0.0046,-0.0331,-1.7266,41.751921,-91.581113, 2.9800, 274.4046, 245.873642, 5.0, 4.0,Automotive,Low, 98.0096, 0.2986, 62.3200, 21.8386,-275.2480, 0.0000, 0.0000, 0.0000
21-May-2019 14:59:26.768, 0.0167, 0.0332,-1.0216,-0.0143, 0.0085,-0.0169,-0.0107, 0.0276,-0.0128, 0.0042,-0.0337,-1.7267,41.751921,-91.581113, 2.9800, 274.4046, 245.873642, 5.0, 4.0,Automotive,Low, 98.0096, 0.2986, 62.3200, 20.0631,-273.8979, 0.0000, 0.0000, 0.0000
21-May-2019 14:59:26.806, 0.0103, 0.0275,-1.0074, 0.0082, 0.0080,-0.0274,-0.0278, 0.0244,-0.0129, 0.0046,-0.0339,-1.7268,41.751921,-91.581113, 2.9800, 274.4046, 245.873642, 5.0, 4.0,Automotive,Low, 98.0095, 0.3092, 62.1425, 20.5958,-272.3791, 0.0000, 0.0000, 0.0000
21-May-2019 14:59:26.844, 0.0387, 0.0229,-0.9917,-0.0224, 0.0120,-0.0325,-0.0160, 0.0350,-0.0160, 0.0044,-0.0345,-1.7270,41.751921,-91.581113, 2.9800, 273.0428, 245.873642, 5.0, 4.0,Automotive,Low, 98.0095, 0.3092, 63.0302, 20.7733,-271.8728, 0.0000, 0.0000, 0.0000
21-May-2019 14:59:26.887, 0.0023, 0.0287,-0.9903, 0.0205, 0.0061,-0.0313,-0.0150, 0.0202,-0.0139, 0.0056,-0.0346,-1.7272,41.751921,-91.581113, 2.9800, 273.0428, 245.873642, 5.0, 4.0,Automotive,Low, 98.0095, 0.3092, 64.0955, 21.1284,-270.5228, 0.0000, 0.0000, 0.0000
21-May-2019 14:59:26.927, 0.0262, 0.0450,-1.0107,-0.0232,-0.0117,-0.0392,-0.0246, 0.0095,-0.0129, 0.0051,-0.0340,-1.7273,41.751921,-91.581113, 2.9800, 271.9628, 245.873642, 5.0, 4.0,Automotive,Low, 98.0095, 0.3092, 64.2731, 22.0162,-271.0291, 0.0000, 0.0000, 0.0000
21-May-2019 14:59:26.960,-0.0009, 0.0302,-1.0177,-0.0013,-0.0036,-0.0081,-0.0022, 0.0361,-0.0106, 0.0053,-0.0344,-1.7274,41.751921,-91.581113, 2.9800, 271.9628, 245.873642, 5.0, 4.0,Automotive,Low, 98.0095, 0.3092, 64.8057, 23.2590,-269.8477, 0.0000, 0.0000, 0.0000
21-May-2019 14:59:26.998,-0.0067, 0.0430,-1.0173, 0.0062,-0.0035,-0.0198,-0.0203, 0.0435,-0.0107, 0.0055,-0.0343,-1.7275,41.751921,-91.581113, 2.9800, 271.9628, 245.873642, 5.0, 4.0,Automotive,Low, 98.0095, 0.3092, 64.0955, 24.6794,-271.8728, 0.0000, 0.0000, 0.0000
21-May-2019 14:59:27.036, 0.0042, 0.0477,-0.9836, 0.0001,-0.0082,-0.0221,-0.0064, 0.0382,-0.0117, 0.0049,-0.0344,-1.7275,41.751921,-91.581113, 2.9800, 271.9628, 245.873642, 5.0, 4.0,Automotive,Low, 98.0095, 0.3092, 64.0955, 23.2590,-271.1978, 0.0000, 0.0000, 0.0000
21-May-2019 14:59:27.076,-0.0161, 0.0343,-1.0270, 0.0032,-0.0001,-0.0102,-0.0331, 0.0233,-0.0086, 0.0047,-0.0344,-1.7275,41.751923,-91.581159, 3.4100, 271.9628, 245.556427, 5.0, 4.0,Automotive,Low, 98.0095, 0.3092, 64.0955, 23.2590,-271.1978, 0.0000, 0.0000, 0.0000
21-May-2019 14:59:27.114,-0.0047, 0.0526,-1.0082, 0.0085,-0.0005,-0.0002,-0.0000, 0.0234,-0.0128, 0.0046,-0.0348,-1.7276,41.751923,-91.581159, 3.4100, 271.9628, 245.556427, 5.0, 4.0,Automotive,Low, 98.0095, 0.3092, 62.3200, 23.2590,-270.8603, 0.0000, 0.0000, 0.0000
21-May-2019 14:59:27.155,-0.0063, 0.0307,-1.0356, 0.0162,-0.0062, 0.0066,-0.0320, 0.0329,-0.0108, 0.0050,-0.0352,-1.7276,41.751923,-91.581159, 3.4100, 271.9628, 245.556427, 5.0, 4.0,Automotive,Low, 98.0095, 0.3092, 60.8996, 24.3243,-270.5228, 0.0000, 0.0000, 0.0000
21-May-2019 14:59:27.192, 0.0174, 0.0318,-1.0092,-0.0257,-0.0007, 0.0065,-0.0075, 0.0180,-0.0128, 0.0048,-0.0354,-1.7277,41.751923,-91.581159, 3.4100, 271.9628, 245.556427, 5.0, 4.0,Automotive,Low, 98.0095, 0.3092, 60.8996, 22.9039,-268.8351, 0.0000, 0.0000, 0.0000
